{"Schools":[
   {"name":"SKH St. Matthew's Primary School","address":"12-20, New Street, Sheung Wan, Hong Kong","lat":22.285738,"lng":114.14667,"radius":250},
   {"name":"St. Paul's College Primary School","address":"70 Hill Road","lat":22.253786,"lng":114.138395,"radius":250},
   {"name":"Catholic Mission School","address":"Rutter Street Central","lat":22.284046,"lng":114.147274,"radius":250},
   {"name":"King's College Old Boys' Association Primary School No. 2","address":"40 Po Hing Fong Sheung Wan","lat":22.284149,"lng":114.147843,"radius":250},
   {"name":"San Wui Commercial Society School","address":"1 Kui In Fong Sheung Wan","lat":22.284047,"lng":114.148967,"radius":250},
   {"name":"Central And Western District St. Anthony's School","address":"2 Hospital Road, Sheung Wan, Hong Kong","lat":22.283949,"lng":114.147526,"radius":250},
   {"name":"Li Sing Primary School","address":"119 High Street Sai Ying Pun","lat":22.285332,"lng":114.139873,"radius":250},
   {"name":"Sacred Heart Canossian School","address":"26 Caine Road Central","lat":22.279976,"lng":114.153374,"radius":250},
   {"name":"Sacred Heart Canossian School Private Section","address":"26 Caine Road Central","lat":22.280081,"lng":114.153485,"radius":250},
   {"name":"St. Stephen's Girls' Primary School","address":"33 Park Road, Hong Kong","lat":22.283985,"lng":114.144589,"radius":250},
   {"name":"Chiu Sheung School, Hong Kong","address":"79B Pokfulam Road","lat":22.283757,"lng":114.135959,"radius":250},
   {"name":"King's College Old Boys' Association Primary School","address":"58 Bridges Street","lat":22.283437,"lng":114.149995,"radius":250},
   {"name":"SKH Kei Yan Primary School","address":"109 Hollywood Road","lat":22.284008,"lng":114.151729,"radius":250},
   {"name":"St. Charles School","address":"25 Pokfield Road Kennedy Town Hong Kong","lat":22.280554,"lng":114.129928,"radius":250},
   {"name":"SKH Lui Ming Choi Memorial Primary School","address":"31 Ka Wai Man Road Kennedy Town","lat":22.281454,"lng":114.124171,"radius":250},
   {"name":"St. Louis School (Primary Section)","address":"179 Third Street","lat":22.286012,"lng":114.138152,"radius":250},
   {"name":"Kau Yan School","address":"97B High Street Sai Ying Pun","lat":22.285399,"lng":114.141112,"radius":250},
   {"name":"St. Anthony's School","address":"69A Pokfulam Road","lat":22.285056,"lng":114.137216,"radius":250},
   {"name":"Bonham Road Government Primary School","address":"9A Bonham Road","lat":22.28453,"lng":114.143931,"radius":250},
   {"name":"St. Clare's Primary School","address":"3-6 Prospect Place, Bonham Road Western, Hong Kong","lat":22.272921,"lng":114.122049,"radius":250},
   {"name":"Salesian School","address":"16 Chai Wan Road Shaukeiwan","lat":22.27571,"lng":114.229609,"radius":250},
   {"name":"CCC Kei Wan Primary School (Aldrich Bay)","address":"39 Oi Shun Road Shaukeiwan","lat":22.281189,"lng":114.225928,"radius":250},
   {"name":"SKH St. Michael's Primary School","address":"23 Fortress Hill Road North Point","lat":22.287897,"lng":114.195709,"radius":250},
   {"name":"North Point Methodist Primary School (A.M.)","address":"19 Cheung Hong Street North Point","lat":22.289176,"lng":114.19584,"radius":250},
   {"name":"North Point Methodist Primary School (P.M.)","address":"19 Cheung Hong Street North Point","lat":22.289189,"lng":114.195865,"radius":250},
   {"name":"Chinese Methodist School (North Point)","address":"15 Pak Fuk Road North Point","lat":22.29053,"lng":114.207523,"radius":250},
   {"name":"Buddhist Chung Wah Kornhill Primary School","address":"2 Hong Yue Street Quarry Bay","lat":22.280915,"lng":114.21386,"radius":250},
   {"name":"The Endeavourers Leung Lee Sau Yu Memorial Primary School","address":"25 Yiu Hing Road, Yiu Tung Estate, Shaukeiwan, H.K","lat":22.276696,"lng":114.226788,"radius":250},
   {"name":"Canossa School (Hong Kong)","address":"8 Hoi Chak Street Quarry Bay","lat":22.288911,"lng":114.210961,"radius":250},
   {"name":"Chinese Methodist School, Tanner Hill","address":"4 Pak Fuk Road, North Point","lat":22.290955,"lng":114.205514,"radius":250},
   {"name":"Chan's Creative School (Hong Kong Island)","address":"82 Marble Road North Point","lat":22.292074,"lng":114.20273,"radius":250},
   {"name":"North Point Government Primary School","address":"888 King's Road North Point","lat":22.288867,"lng":114.209513,"radius":250},
   {"name":"North Point Government Primary School (Cloudview Road)","address":"22 Cloud View Road, North Point, Hong Kong","lat":22.284211,"lng":114.194949,"radius":250},
   {"name":"Shanghai Alumni Primary School","address":"14 Hong Shing Street, Quarry Bay, Hong Kong","lat":22.281784,"lng":114.215533,"radius":250},
   {"name":"Taikoo Primary School","address":"1100 King's Road","lat":22.283993,"lng":114.21487,"radius":250},
   {"name":"Aldrich Bay Government Primary School","address":"1 Oi Lai Street Shau Kei Wan","lat":22.282681,"lng":114.22868,"radius":250},
   {"name":"CCC Kei Wan Primary School","address":"63 Sai Wan Ho Street Shau Kei Wan","lat":22.280085,"lng":114.222558,"radius":250},
   {"name":"ELCHK Faith Love Lutheran School","address":"Estate School No.2 Yue Wan Estate, Chai Wan","lat":22.266595,"lng":114.242212,"radius":250},
   {"name":"Meng Tak Catholic School","address":"11 Cheung Man Road, Chai Wan, Hong Kong","lat":22.268499,"lng":114.236116,"radius":250},
   {"name":"Pui Kiu Primary School","address":"12 Fu Yee Road Siu Sai Wan Chai Wan","lat":22.374464,"lng":114.173332,"radius":250},
   {"name":"SKH Chai Wan St. Michael's Primary School","address":"380 Chai Wan Road Chai Wan","lat":22.26551,"lng":114.24328,"radius":250},
   {"name":"Shau Kei Wan Government Primary School","address":"19 Main Street East Shaukeiwan","lat":22.28111,"lng":114.230911,"radius":250},
   {"name":"Shaukiwan Tsung Tsin School","address":"3 Basel Road, Shaukiwan, Hong Kong","lat":22.2816,"lng":114.231077,"radius":250},
   {"name":"St. Mark's Primary School","address":"71 Chai Wan Road Shaukeiwan","lat":22.274794,"lng":114.231687,"radius":250},
   {"name":"The HKCWC Hioe Tjo Yoeng Primary School","address":"61 Sai Wan Ho Street Shaukiwan","lat":22.280298,"lng":114.222863,"radius":250},
   {"name":"The Salvation Army Ann Wyllie Memorial School","address":"100 Shing Tai Road Heng Fa Chuen","lat":22.276216,"lng":114.238367,"radius":250},
   {"name":"HKUGA Primary School","address":"9 Yee Shing Street Chai Wan","lat":22.26555581005254,"lng":114.23965729773045,"radius":0.045},
   {"name":"Kiangsu and Chekiang Primary School","address":"30 Ching Wah Street, North Point","lat":22.289257,"lng":114.198509,"radius":250},
   {"name":"The Salvation Army Centaline Charity Fund School","address":"9 Wah Ha Street Chai Wan Hong Kong","lat":22.262038,"lng":114.237629,"radius":250},
   {"name":"Hon Wah College (Primary Section)","address":"3 Harmony Road, Siu Sai Wan, Hong Kong","lat":22.264995,"lng":114.250398,"radius":250},
   {"name":"Ching Chung Hau Po Woon Primary School","address":"Area 10 Phase 3 (School 1) NT New Town Tung Chung","lat":22.288678,"lng":113.94373,"radius":250},
   {"name":"Bui O Public School","address":"DD 316 Lot 2724 (Pt) 2 Lo Uk Village NT Pui O, Lantau Island","lat":22.242972,"lng":113.97626,"radius":250},
   {"name":"Tung Chung Catholic School","address":"Yat Tung Estate, Tung Chung, NT","lat":22.282943,"lng":113.935791,"radius":250},
   {"name":"Holy Family School","address":"Shing Ka Road Peng Chau","lat":22.281861,"lng":114.039333,"radius":250},
   {"name":"Northern Lamma School","address":"No 1 Yung Shue Ling NT Yung Shue Wan, Lamma Island","lat":22.224901,"lng":114.115318,"radius":250},
   {"name":"Cheung Chau Sacred Heart School","address":"C C Lot Nos 916 & 1092, Church Road NT Cheung Chau","lat":22.209712,"lng":114.030099,"radius":250},
   {"name":"Kwok Man School","address":"30 Kwok Man Road Cheung Chau","lat":22.210727,"lng":114.029393,"radius":250},
   {"name":"CCC Tai O Primary School","address":"24-26 Market Street, Tai O NT Lantau Island","lat":22.254383,"lng":113.861672,"radius":250},
   {"name":"H.K.F.E.W. Wong Cho Bau School","address":"Yat Tung Estate Tung Chung Lantau Island NT","lat":22.281005,"lng":113.936988,"radius":250},
   {"name":"Po On Commercial Association Wan Ho Kan Primary School","address":"Fu Tung Estate Tung Chung Lantau Island NT","lat":22.288328,"lng":113.943409,"radius":250},
   {"name":"The Salvation Army Lam Butt Chung Memorial School","address":"Yat Tung Estate Tung Chung NT Lantau Island","lat":22.281611,"lng":113.93715,"radius":250},
   {"name":"SKH Wei Lun Primary School","address":"Area 13, Discovery Bay Lantau Island NT","lat":22.300714,"lng":114.012204,"radius":250},
   {"name":"Ling Liang Church Sau Tak Primary School","address":"35 Man Tung Road, Tung Chung Lantau Island NT","lat":22.29029,"lng":113.945328,"radius":250},
   {"name":"CCC Cheung Chau Church Kam Kong Primary School","address":"No.1 Peak Road West Cheung Chau","lat":22.2036,"lng":114.028191,"radius":250},
   {"name":"Ho Yu College and Primary School (Sponsored by Sik Sik Yuen)","address":"4-6, Kin Tung Road Tung Chung","lat":22.293875,"lng":113.94925,"radius":250},
   {"name":"Mui Wo School","address":"Chung Hau Village, Silver Mine Bay NT Lantau Island","lat":22.266139,"lng":113.991423,"radius":250},
   {"name":"Kowloon Tong Bishop Walsh Catholic School","address":"39 Inverness Road, Kowloon","lat":22.334451,"lng":114.186415,"radius":250},
   {"name":"Ling To Catholic Primary School","address":"Chun Man Court Oi Man Estate Homantin KLN","lat":22.31475,"lng":114.179306,"radius":250},
   {"name":"Ma Tau Chung Government Primary School","address":"1 Fuk Cheung Street Tokwawan","lat":22.32462,"lng":114.186772,"radius":250},
   {"name":"Oblate Primary School","address":"1 Shun Fung Street Tokwawan","lat":22.315958,"lng":114.191844,"radius":250},
   {"name":"St Rose of Lima's School","address":"4 Embankment Road, Kowloon","lat":22.326274,"lng":114.174943,"radius":250},
   {"name":"GCEPSA Whampoa Primary School","address":"30 Tak On Street Whampoa Garden KLN Hung Hom","lat":22.303417,"lng":114.191543,"radius":250},
   {"name":"Diocesan Boys' School Primary Division","address":"131 Argyle Street Mongkok","lat":22.321153,"lng":114.173222,"radius":250},
   {"name":"Pui Ching Primary School","address":"80 Waterloo Road Kowloon City","lat":22.317608,"lng":114.176214,"radius":250},
   {"name":"SKH Good Shepherd Primary School","address":"171 Ma Tau Wai Road Kowloon City","lat":22.318135,"lng":114.187871,"radius":250},
   {"name":"Alliance Primary School, Whampoa","address":"21 Tak Fung Street Whampoa Garden KLN Hung Hom","lat":22.303128,"lng":114.190911,"radius":250},
   {"name":"SKH Fung Kei Millennium Primary School","address":"2 Tak Ting Street, Whampoa Graden, Hung Hom","lat":22.304392,"lng":114.191178,"radius":250},
   {"name":"SKH Fung Kei Primary School","address":"4 Tak Ting Street Whampoa Garden Hunghom Kowloon","lat":22.304819,"lng":114.191419,"radius":250},
   {"name":"CCC Kei Wa Primary School (Kowloon Tong)","address":"1B Oxford Road Kowloon Tong Kowloon","lat":22.329603,"lng":114.180457,"radius":250},
   {"name":"Holy Family Canossian School","address":"102 Junction Road Kowloon City Kowloon","lat":22.331199,"lng":114.187341,"radius":250},
   {"name":"Iu Shan School","address":"24 Grampian Road","lat":22.330112,"lng":114.186707,"radius":250},
   {"name":"La Salle Primary School","address":"1D La Salle Road","lat":22.32727,"lng":114.181433,"radius":250},
   {"name":"Maryknoll Convent School (Primary Section)","address":"130 Waterloo Road Kowloon City","lat":22.327431,"lng":114.179243,"radius":250},
   {"name":"Alliance Primary School, Kowloon Tong","address":"Portion Of G/F - 2/F & Whole Floor Of 3/F - 8/F 2 Lancashire Road Kowloon Tong KLN","lat":22.330174,"lng":114.17933,"radius":250},
   {"name":"Kowloon True Light Middle School (Primary Section)","address":"115 Waterloo Road","lat":22.33015,"lng":114.178407,"radius":250},
   {"name":"Pooi To Primary School","address":"3 Fuk Cheung Street Ma Tau Chung","lat":22.324325,"lng":114.186346,"radius":250},
   {"name":"Diocesan Preparatory School","address":"1 Chester Road Kowloon Tong Kowloon","lat":22.329115,"lng":114.178836,"radius":250},
   {"name":"Chan Sui Ki (La Salle) Primary School","address":"22 Sheung Shing Street Homantin Kowloon","lat":22.318834,"lng":114.181157,"radius":250},
   {"name":"ELCHK Hung Hom Lutheran Primary School","address":"39 Pau Chung Street Tokwawan Kowloon","lat":22.318409,"lng":114.187897,"radius":250},
   {"name":"Emmanuel Primary School, Kowloon","address":"36-38 Shing Tak Street Ma Tau Wai","lat":22.324307,"lng":114.188127,"radius":250},
   {"name":"Farm Road Government Primary School","address":"8 Farm Road Tokwawan","lat":22.320827,"lng":114.186644,"radius":250},
   {"name":"Heep Yunn Primary School","address":"1 Farm Road","lat":22.321735,"lng":114.185281,"radius":250},
   {"name":"SKH Holy Carpenter Primary School","address":"14 Kwei Chow Street","lat":22.31612,"lng":114.192921,"radius":250},
   {"name":"Hop Yat Church School","address":"7 Princess Margaret Road","lat":22.320305,"lng":114.179276,"radius":250},
   {"name":"Ma Tau Chung Government Primary School (Hung Hom Bay)","address":"3 Oi King Street Hung Hom Bay","lat":22.302547,"lng":114.188017,"radius":250},
   {"name":"Holy Family Canossian School (Kowloon Tong)","address":"8 Tim Fuk Road Kowloon Tong","lat":22.336356,"lng":114.177986,"radius":250},
   {"name":"Munsang College Primary School","address":"8 Dumbarton Road Kowloon City","lat":22.332712,"lng":114.186126,"radius":250},
   {"name":"CCC Wanchai Church Kei To Primary School (Kowloon City)","address":"170 Kau Pui Lung Road Kowloon City","lat":22.315475,"lng":114.185879,"radius":250},
   {"name":"Holy Angels Canossian School","address":"21 Hok Yuen Street Hung Hom","lat":22.310613,"lng":114.186295,"radius":250},
   {"name":"SKH St. Timothy's Primary School","address":"14 & 19 Hok Yuen Street Hung Hom","lat":22.310768,"lng":114.186848,"radius":250},
   {"name":"Kowloon Tong Government Primary School","address":"6 Tim Fuk Road Kowloon Tong","lat":22.336039,"lng":114.17844,"radius":250},
   {"name":"Lok Sin Tong Primary School","address":"63 Lung Kong Road Kowloon City","lat":22.33041,"lng":114.190255,"radius":250},
   {"name":"Creative Primary School","address":"2A Oxford Road, Kowloon Tong Kowloon","lat":22.328857,"lng":114.180966,"radius":250},
   {"name":"First Assembly of God Primary School and Kindergarten","address":"123 Argyle Street Kowloon City","lat":22.320542,"lng":114.173713,"radius":250},
   {"name":"Holy Trinity Primary School","address":"57 Fu Ning Street","lat":22.325128,"lng":114.18849,"radius":250},
   {"name":"Kowloon Tong School (Primary Section)","address":"Nkil 2721 Surrey Lane Cumberland Road Kln Kowloon Tong","lat":22.32768,"lng":114.175263,"radius":250},
   {"name":"St. Johannes College (Primary Section)","address":"143 Waterloo Road Kowloon Tong","lat":22.333811,"lng":114.178586,"radius":250},
   {"name":"PLK Lam Man Chan English Primary School","address":"24 Sheung Heung Road & 2 Farm Road, To Kwa Wan","lat":22.318644,"lng":114.188295,"radius":250},
   {"name":"Conservative Baptist Lui Ming Choi Primary School","address":"Kai Yip Estate Phase 2 Kwun Tong KLN","lat":22.329405,"lng":114.214736,"radius":250},
   {"name":"HKTA Wun Tsuen School","address":"Upper Ngau Tau Kok Estate On Shin Road KLN","lat":22.319492,"lng":114.217768,"radius":250},
   {"name":"Our Lady Of China Catholic Primary School","address":"Tsui Ping Estate Phase Iv Kwun Tong KLN","lat":22.313098,"lng":114.230458,"radius":250},
   {"name":"Carmel Leung Sing Tak School","address":"Estate School No. 2 Shun On Estate Kwun Tong KLN","lat":22.328257,"lng":114.225388,"radius":250},
   {"name":"Buddhist Chi King Primary School","address":"12 Kai Lai Road Kowloon Bay KLN","lat":22.327839,"lng":114.207107,"radius":250},
   {"name":"The Mission Covenant Church Holm Glad Primary School","address":"77 Sau Ming Road Sau Mau Ping Kwun Tong KLN","lat":22.320663,"lng":114.232031,"radius":250},
   {"name":"Jordan Valley St. Joseph's Catholic Primary School","address":"80 Choi Ha Road, KLN","lat":22.328725,"lng":114.213828,"radius":250},
   {"name":"Bishop Paschang Catholic School","address":"Primary School At Wang Chiu Road Kowloon Bay KLN","lat":22.328552,"lng":114.208091,"radius":250},
   {"name":"Lam Tin Methodist Primary School","address":"On Tin Street Ping Tin Estate Lam Tin Kwun Tong KLN","lat":22.307239,"lng":114.236752,"radius":250},
   {"name":"Kowloon Bay St. John The Baptist Catholic Primary School","address":"23 Kai Yip Road, Kowloon Bay, Kowloon","lat":22.327917,"lng":114.212024,"radius":250},
   {"name":"Ping Shek Estate Catholic Primary School","address":"Estate School No 1 Ping Shek Estate Kln Kwun Tong KLN","lat":22.334147,"lng":114.210604,"radius":250},
   {"name":"SKH Kowloon Bay Kei Lok Primary School","address":"6 Kai Yan Street Kowloon Bay KLN","lat":22.328938,"lng":114.206259,"radius":250},
   {"name":"SKH St. John's Primary School","address":"16 Clear Water Bay Road, Kowloon","lat":22.333968,"lng":114.211342,"radius":250},
   {"name":"CCC Kei Faat Primary School (Yau Tong)","address":"25 Yau Tong Road Yau Tong","lat":22.299856,"lng":114.234247,"radius":250},
   {"name":"HKTA YYI Chan Lui Chung Tak Memorial School","address":"5 Ko Chiu Path, Yau Tong, KLN","lat":22.300763,"lng":114.239996,"radius":250},
   {"name":"Lok Wah Catholic Primary School","address":"81 Chun Wah Road Kwun Tong KLN","lat":22.321736,"lng":114.221709,"radius":250},
   {"name":"Man Kiu Association Primary School","address":"Estate School No. 3 Upper Ngau Tau Kok Estate Kwun Tong KLN","lat":22.319865,"lng":114.217609,"radius":250},
   {"name":"SKH Kei Lok Primary School","address":"Lok Wah Estate Ngau Tau Kok KLN","lat":22.328938,"lng":114.206259,"radius":250},
   {"name":"SKH Lee Shiu Keung Primary School","address":"School No. 1 On Tin Street Ping Tin Estate Lam Tin Kwun Tong KLN","lat":22.306803,"lng":114.236926,"radius":250},
   {"name":"SKH Tak Tin Lee Shiu Keung Primary School","address":"No 3 Hing Tin Street Lam Tin Kwun Tong KLN","lat":22.310966,"lng":114.23697,"radius":250},
   {"name":"SKH Yautong Kei Hin Primary School","address":"23 Yau Tong Road Yau Tong KLN","lat":22.300046,"lng":114.235003,"radius":250},
   {"name":"Sau Mau Ping Catholic Primary School","address":"Po Tat Estate Kwun Tong KLN","lat":22.317542,"lng":114.23708,"radius":250},
   {"name":"Sau Ming Primary School","address":"5 Sau Fung Street Sau Mau Ping Kwun Tong KLN","lat":22.319442,"lng":114.232881,"radius":250},
   {"name":"St. Antonius Primary School","address":"1 Yau Tong Road Kwun Tong KLN","lat":22.301285,"lng":114.237061,"radius":250},
   {"name":"St. Edward's Catholic Primary School","address":"8 Hing Tin Street Lam Tin Kwun Tong KLN","lat":22.31148,"lng":114.237557,"radius":250},
   {"name":"St. Matthew's Lutheran School (Sau Mau Ping)","address":"123 Sau Ming Road, Sau Mau Ping Estate, Kwun Tong, KLN","lat":22.316838,"lng":114.233466,"radius":250},
   {"name":"Kwun Tong Government Primary School (Sau Ming Road)","address":"130 Sau Ming Road, Sau Mau Ping, Kwun Tong","lat":22.315068,"lng":114.233927,"radius":250},
   {"name":"SKH Kei Hin Primary School","address":"Upper Ngau Tau Kok Estate Kwun Tong KLN","lat":22.318025,"lng":114.217289,"radius":250},
   {"name":"CCC Kei Faat Primary School","address":"34 Yuet Wah Street Kwun Tong KLN","lat":22.312459,"lng":114.227508,"radius":250},
   {"name":"St. John The Baptist Catholic Primary School","address":"29 Yee On Street Kwun Tong KLN","lat":22.315353,"lng":114.222949,"radius":250},
   {"name":"Kwun Tong Government Primary School","address":"240 Ngau Tau Kok Road Kwun Tong KLN","lat":22.316522,"lng":114.217952,"radius":250},
   {"name":"St. Joseph's Anglo-Chinese Primary School","address":"57 Kwun Tong Road Kwun Tong KLN","lat":22.33096,"lng":114.210619,"radius":250},
   {"name":"Lok Sin Tong Yeung Chung Ming Primary School","address":"Lok Wah South Estate Ngau Tau Kok KLN","lat":22.320281,"lng":114.22323,"radius":250},
   {"name":"Fukien Secondary School Affiliated School","address":"Yau Tong Estate Phase 2 Kwun Tong KLN","lat":22.300224,"lng":114.237574,"radius":250},
   {"name":"Buddhist Lam Bing Yim Memorial School","address":"33 Tai Ha Street Tsuen Wan NT","lat":22.369747,"lng":114.123447,"radius":250},
   {"name":"SKH Chu Yan Primary School","address":"Estate School No. 2 Kwai Shing Estate NT Kwai Shing NT","lat":22.361105,"lng":114.12103,"radius":250},
   {"name":"Cho Yiu Catholic Primary School","address":"10 King Cho Road Cho Yiu Chuen Kwai Chung NT","lat":22.345896,"lng":114.129322,"radius":250},
   {"name":"SKH Yan Laap Memorial Primary School","address":"13 Sheung Kok Street Kwai Chung NT","lat":22.369691,"lng":114.127971,"radius":250},
   {"name":"Buddhist Lim Kim Tian Memorial Primary School","address":"Phase 5 Kwai Fong Estate Kwai Chung NT","lat":22.358469,"lng":114.12881,"radius":250},
   {"name":"CNEC Lui Ming Choi Primary School","address":"Cheung Fat Estate Tsing Yi NT","lat":22.36245,"lng":114.101775,"radius":250},
   {"name":"Salesian Yip Hon Millennium Primary School","address":"9 Shek Pai Street Kwai Chung NT","lat":22.364449,"lng":114.137367,"radius":250},
   {"name":"PLK Chan Yat Primary School","address":"Estate Primary School No.2 Cheung Hong Estate Tsing Yi NT","lat":22.350449,"lng":114.098778,"radius":250},
   {"name":"SKH Ho Chak Wan Primary School","address":"Cheung Hang Estate Tsing Yi NT","lat":22.357458,"lng":114.097302,"radius":250},
   {"name":"SKH Tsing Yi Chu Yan Primary School","address":"Cheung Wang Estate Tsing Yi NT","lat":22.356882,"lng":114.095313,"radius":250},
   {"name":"Tsing Yi Trade Association Primary School","address":"12 Ching Hong Road, Cheung Hong Estate, Tsing Yi, NT","lat":22.34938,"lng":114.104114,"radius":250},
   {"name":"Delia (Man Kiu) English Primary School","address":"Estate Primary School No. 2 Cheung On Estate Phase Ii Tsing Yi NT","lat":22.360452,"lng":114.105668,"radius":250},
   {"name":"Shek Lei Catholic Primary School","address":"18 Shek Li Street, Shek Lei (Ii) Estate, Shek Lei Catholic Primary School, Kwai Chung, N.T.","lat":22.366166,"lng":114.141234,"radius":250},
   {"name":"SKH Chu Oi Primary School","address":"45 Tung Chi Street Shek Yam Kwai Chung NT","lat":22.371032,"lng":114.139673,"radius":250},
   {"name":"Salesian Yip Hon Primary School","address":"On Yam Estate Kwai Chung NT","lat":22.372258,"lng":114.141449,"radius":250},
   {"name":"Shek Lei St. John's Catholic Primary School","address":"99 Tai Pak Tin Street, Kwai Chung, N.T.","lat":22.369123,"lng":114.140467,"radius":250},
   {"name":"Asbury Methodist Primary School","address":"Estate School No. 2 Lai King Estate NT Kwai Chung NT","lat":22.345798,"lng":114.127081,"radius":250},
   {"name":"CCC Chuen Yuen Second Primary School","address":"3 Sheung Kok Street Tai Wo Hau NT Tsuen Wan NT","lat":22.368124,"lng":114.126245,"radius":250},
   {"name":"CNEC Ta Tung School","address":"Estate School No. 1 Kwai Hing Estate NT Kwai Chung NT","lat":22.364188,"lng":114.131982,"radius":250},
   {"name":"CCC Kei Chun Primary School","address":"11 Wa Lai Path Kwai Chung NT","lat":22.342241,"lng":114.136813,"radius":250},
   {"name":"ELCHK Kwai Shing Lutheran Primary School","address":"Kwai Shing East Estate, Kwai Chung, NT","lat":22.362729,"lng":114.126407,"radius":250},
   {"name":"SRBCEPSA Lee Yat Ngok Memorial School","address":"221 Kwai Shing Circuit Kwai Chung NT","lat":22.363415,"lng":114.123008,"radius":250},
   {"name":"SKH Yan Laap Primary School","address":"399 Kwai Shing Circuit Kwai Chung NT","lat":22.365473,"lng":114.130627,"radius":250},
   {"name":"TWGHs Ko Ho Ning Memorial Primary School","address":"Lai Yiu Estate Kwai Chung NT","lat":22.3532,"lng":114.129763,"radius":250},
   {"name":"Father Cucchiara Memorial School","address":"Estate School No. 2 Cheung Ching Estate Phase I Tsing Yi NT","lat":22.348223,"lng":114.107584,"radius":250},
   {"name":"PLK Castar Primary School","address":"Tsing Luk Street Tsing Yi NT","lat":22.355094,"lng":114.106621,"radius":250},
   {"name":"SKH Tsing Yi Estate Ho Chak Wan Primary School","address":"Premises of Primary School Area 1 Tsing Yi NT","lat":22.355735,"lng":114.104292,"radius":250},
   {"name":"TWGHs Chow Yin Sum Primary School","address":"8 Tsing Chin Street Tsing Yi NT","lat":22.348486,"lng":114.102361,"radius":250},
   {"name":"TWGHs Wong See Sum Primary School","address":"Cheung On Estate Tsing Yi NT","lat":22.361693,"lng":114.10181,"radius":250},
   {"name":"Tsuen Wan Trade Association Primary School","address":"Estate Primary School No. 1 Tsing Yi Estate Area 1 Tsing Yi NT","lat":22.353978,"lng":114.102734,"radius":250},
   {"name":"Yan Chai Hospital Chiu Tsang Hok Wan Primary School","address":"Estate Primary School Tsing Yi Estate Phase Ii Tsing Yi NT","lat":22.356826,"lng":114.102473,"radius":250},
   {"name":"HHCKLA Buddhist Wisdom Primary School","address":"6 Ching Shing Road Sheung Shui NT","lat":22.493858,"lng":114.124158,"radius":250},
   {"name":"Yuk Yin School","address":"Jockey Club Road Sheung Shui","lat":22.502856,"lng":114.131528,"radius":250},
   {"name":"Pentecostal Gin Mao Sheng Primary School","address":"4 Pik Fung Road Fanling","lat":22.496333,"lng":114.138428,"radius":250},
   {"name":"SKH Ka Fuk Wing Chun Primary School","address":"Primary School, Ka Fuk Estate Fanling NT","lat":22.493444,"lng":114.134851,"radius":250},
   {"name":"Fanling Government Primary School","address":"Cheung Wah Estate Fanling","lat":22.493429,"lng":114.142965,"radius":250},
   {"name":"Shek Wu Hui Public School","address":"Tin Ping Estate Sheung Shui","lat":22.504353,"lng":114.132458,"radius":250},
   {"name":"TWGHs Hong Kong and Kowloon Electrical Appliances Merchants Association Limited School","address":"Area 7, Chi Cheong Road, Shek Wu Hui, Sheung Shui, N.T.","lat":22.50022,"lng":114.132267,"radius":250},
   {"name":"TWGHs Ma Kam Chan Memorial Primary School","address":"Choi Yuen Estate, Sheung Shui, N.T.","lat":22.498788,"lng":114.129941,"radius":250},
   {"name":"Fanling Assembly of God Church Primary School","address":"2 Wo Ming Lane Fanling","lat":22.484528,"lng":114.142273,"radius":250},
   {"name":"Fung Kai Liu Yun Sum Memorial School","address":"Wah Ming Estate Phase I Fanling","lat":22.483878,"lng":114.139891,"radius":250},
   {"name":"Ta Ku Ling Ling Ying Public School","address":"Chow Tin Village Ta Ku Ling","lat":22.537167,"lng":114.141656,"radius":250},
   {"name":"Fuk Tak Education Society Primary School","address":"P.O.Box 11, Sha Tau Kok,NT Shan Tsui Village Shataukok NT","lat":22.549598,"lng":114.22384,"radius":250},
   {"name":"HHCKLA Buddhist Chan Shi Wan Primary School","address":"Choi Yuen Estate Sheung Shui","lat":22.499261,"lng":114.128195,"radius":250},
   {"name":"Kam Tsin Village Ho Tung School","address":"Kam Tsin Village Sheung Shui","lat":22.502043,"lng":114.111498,"radius":250},
   {"name":"SKH Wing Chun Primary School","address":"No.3 Kat Cheung Crescent Fanling NT","lat":22.4966,"lng":114.131223,"radius":250},
   {"name":"Tsang Mui Millennium School","address":"1 Tsing Shing Road Sheung Shui","lat":22.493751,"lng":114.125149,"radius":250},
   {"name":"Wai Chow Public School (Sheung Shui)","address":"Ting Ping Road , Sheung Shui , N.T.","lat":22.503111,"lng":114.134678,"radius":250},
   {"name":"FSFTF Fong Shu Chuen Primary School","address":"Wah Ming Estate Phase II Fanling","lat":22.482688,"lng":114.141286,"radius":250},
   {"name":"Sha Tau Kok Central Primary School","address":"Sha Tau Kok Hui Sha Tau Kok","lat":22.546609,"lng":114.223378,"radius":250},
   {"name":"Pentecostal Yu Leung Fat Primary School","address":"16 Fai Ming Road Fanling","lat":22.482094,"lng":114.138355,"radius":250},
   {"name":"Fung Kai No.1 Primary School","address":"19 Jockey Club Road Sheung Shui","lat":22.510881,"lng":114.127555,"radius":250},
   {"name":"Fung Kai Innovative School","address":"19A Jockey Club Road Sheung Shui","lat":22.510775,"lng":114.128119,"radius":250},
   {"name":"Lee Chi Tat Memorial School","address":"30 Tin Ping Road NT Shek Wu Hui Sheung Shui","lat":22.506815,"lng":114.131155,"radius":250},
   {"name":"Tung Koon School (Sheung Shui)","address":"Jockey Club Road Sheung Shui","lat":22.502786,"lng":114.131044,"radius":250},
   {"name":"Alliance Primary School, Sheung Shui","address":"2 Wo Muk Road, Luen Wo Hui, Fanling, N.T.","lat":22.500956,"lng":114.142608,"radius":250},
   {"name":"Fanling Public School","address":"Fanling Village Fanling","lat":22.496697,"lng":114.137356,"radius":250},
   {"name":"HHCKLA Buddhist Ching Kok Lin Association School","address":"12 Yat Ming Road Fanling","lat":22.487193,"lng":114.142073,"radius":250},
   {"name":"Pui Ling School Of The Precious Blood","address":"13 On Lok Mun Street On Lok Tsuen Fanling NT","lat":22.497655,"lng":114.143746,"radius":250},
   {"name":"Assembly of God Leung Sing Tak Primary School","address":"2 Man Kuk Lane Tseung Kwan O","lat":22.313916,"lng":114.264345,"radius":250},
   {"name":"PLK Luk Hing Too Primary School","address":"Po Lam Estate Tseung Kwan O","lat":22.32649,"lng":114.253571,"radius":250},
   {"name":"Pok Oi Hospital Chan Kwok Wai Primary School","address":"Sheung Tak Estate Tseung Kwan O","lat":22.313297,"lng":114.258252,"radius":250},
   {"name":"Yan Chai Hospital Chan Iu Seng Primary School","address":"Yuk Ming Court Tseung Kwan O","lat":22.315406,"lng":114.267338,"radius":250},
   {"name":"Yan Oi Tong Tin Ka Ping Primary School","address":"3 Tong Chun Street Tseung Kwan O","lat":22.309706,"lng":114.261215,"radius":250},
   {"name":"Lok Sin Tong Lau Tak Primary School","address":"Po Lam Estate Tseung Kwan O","lat":22.326692,"lng":114.256311,"radius":250},
   {"name":"Christian & Missionary Alliance Sun Kei Primary School","address":"Sheung Tak Estate Tseung Kwan O","lat":22.312751,"lng":114.257666,"radius":250},
   {"name":"Hong Kong And Macau Lutheran Church Ming Tao Primary School","address":"7 Choi Ming Street Choi Ming Court Tseung Kwan O NT","lat":22.307624,"lng":114.253589,"radius":250},
   {"name":"King Lam Catholic Primary School","address":"King Lam Estate Tseung Kwan O","lat":22.320335,"lng":114.260277,"radius":250},
   {"name":"PLK Wong Wing Shu Primary School","address":"2 Tong Yin Street Tseung Kwan O","lat":22.309339,"lng":114.257239,"radius":250},
   {"name":"SKH Tseung Kwan O Kei Tak Primary School","address":"82 Po Hong Road Tseung Kwan O","lat":22.323619,"lng":114.252213,"radius":250},
   {"name":"PLK Fung Ching Memorial Primary School","address":"2 Pui Shing Road Tseung Kwan O","lat":22.31492,"lng":114.263406,"radius":250},
   {"name":"St. Andrew's Catholic Primary School","address":"30 Chui Ling Road Tseung Kwan O","lat":22.304368,"lng":114.248992,"radius":250},
   {"name":"Shun Tak Fraternal Association Leung Kit Wah Primary School","address":"2 Mau Tai Road Tseung Kwan O","lat":22.323245,"lng":114.256037,"radius":250},
   {"name":"Sai Kung Central Lee Siu Yam Memorial School","address":"18 Wai Man Road Sai Kung","lat":22.384426,"lng":114.27632,"radius":250},
   {"name":"G.T. (Ellen Yeung) College","address":"Choi Ming Street Tseung Kwan O","lat":22.31775,"lng":114.171775,"radius":250},
   {"name":"Tseung Kwan O Catholic Primary School","address":"6 Tong Yin Street Tseung Kwan O","lat":22.308559,"lng":114.257436,"radius":250},
   {"name":"The Hong Kong Chinese Christian Churches Union Logos Academy","address":"5 Ling Kwong Street Tseung Kwan O","lat":22.30727,"lng":114.251381,"radius":250},
   {"name":"Chi Lin Buddhist Primary School","address":"1 Tong Chun Street Tseung Kwan O","lat":22.310346,"lng":114.260932,"radius":250},
   {"name":"Sai Kung Sung Tsun Catholic School (Primary Section)","address":"Blocks F & G Ancillary Block Po Tung Road Sai Kung NT","lat":22.382715,"lng":114.270426,"radius":250},
   {"name":"Tseung Kwan O Government Primary School","address":"Hau Tak Estate Tseung Kwan O","lat":22.318283,"lng":114.263378,"radius":250},
   {"name":"Tseung Kwan O Methodist Primary School","address":"15 Tong Chun Street Tseung Kwan O","lat":22.305095,"lng":114.261858,"radius":250},
   {"name":"Evangel College","address":"No. 7 Chi Shin Street Tseung Kwan O NT","lat":22.304564,"lng":114.262429,"radius":250},
   {"name":"HHCKLA Buddhist Wong Cho Sum School","address":"King Lam Estate Tseung Kwan O","lat":22.319984,"lng":114.260601,"radius":250},
   {"name":"TWGHs Wong Yee Jar Jat Memorial Primary School","address":"8 Hok Lam Lane Tseung Kwan O","lat":22.319177,"lng":114.259333,"radius":250},
   {"name":"Hong Kong and Macau Lutheran Church Primary School","address":"4 Chap Fuk Road Tseung Kwan O","lat":22.319474,"lng":114.266556,"radius":250},
   {"name":"St. Peter's Catholic Primary School","address":"Phase 2 Lei Tung Estate Ap Lei Chau","lat":22.24233,"lng":114.156474,"radius":250},
   {"name":"Aplichau Kaifong Primary School","address":"9 Lei Tung Road Lei Tung Estate Ap Lei Chau","lat":22.240459,"lng":114.154119,"radius":250},
   {"name":"Precious Blood Primary School (South Horizons)","address":"355 Ap Lei Chau Bridge Road, Ap Lei Chau, Hong Kong","lat":22.243955,"lng":114.148731,"radius":250},
   {"name":"SKH Chi Fu Chi Nam Primary School","address":"3 Chi Fu Close, Chi Fu Fa Yuen","lat":22.25722,"lng":114.138684,"radius":250},
   {"name":"The Independent Schools Foundation Academy","address":"1 Kong Sin Wan Road Pokfulam Hong Kong","lat":22.263323,"lng":114.129983,"radius":250},
   {"name":"St. Paul's Co-educational College Primary School","address":"11 Nam Fung Path Wong Chuk Hang Hong Kong","lat":22.251891,"lng":114.177192,"radius":250},
   {"name":"Hong Kong Southern District Government Primary School","address":"325 Apleichau Bridge Rd Apleichau","lat":22.243447,"lng":114.150477,"radius":250},
   {"name":"Island Road Government Primary School","address":"20 Tsung Man Street Aberdeen","lat":22.250088,"lng":114.155449,"radius":250},
   {"name":"Precious Blood Primary School (Wah Fu Estate)","address":"27 Waterfall Bay Road, Wah Fu Estate","lat":22.252395,"lng":114.134364,"radius":250},
   {"name":"SKH Tin Wan Chi Nam Primary School","address":"Tin Wan, Aberdeen, Hong Kong","lat":22.251996,"lng":114.151301,"radius":250},
   {"name":"TWGHs Hok Shan School","address":"5 Wah Lam Path, Wah Fu Estate, Pokfulam, Hong Kong","lat":22.252649,"lng":114.138213,"radius":250},
   {"name":"St. Stephen's College Preparatory School","address":"30-32 Wong Ma Kok Road Stanley","lat":22.212956,"lng":114.216111,"radius":250},
   {"name":"Victoria Shanghai Academy","address":"19 Shum Wan Road Aberdeen Hong Kong","lat":22.241582,"lng":114.166512,"radius":250},
   {"name":"Aberdeen St. Peter's Catholic Primary School","address":"Shek Pai Wan Estate","lat":22.250874,"lng":114.157891,"radius":250},
   {"name":"Pui Tak Canossian Primary School","address":"180 Aberdeen Main Road Aberdeen","lat":22.2492,"lng":114.155995,"radius":250},
   {"name":"St. Francis Of Assisi's English Primary School","address":"58 Shek Kip Mei Street Sham Shui Po","lat":22.330595,"lng":114.166627,"radius":250},
   {"name":"Sham Shui Po Government Primary School","address":"101 Sham Mong Road Sham Shui Po","lat":22.333956,"lng":114.159627,"radius":250},
   {"name":"Pak Tin Catholic Primary School","address":"Pak Tin Estate, Shamshuipo","lat":22.337788,"lng":114.168716,"radius":250},
   {"name":"SKH St. Clement's Primary School","address":"5 Fortune Street Cheung Sha Wan","lat":22.334851,"lng":114.153535,"radius":250},
   {"name":"Shamshuipo Kaifong Welfare Association Primary School","address":"88 Yu Chau Street, Shamshuipo, Kowloon","lat":22.327393,"lng":114.165003,"radius":250},
   {"name":"Fuk Wing Street Government Primary School","address":"231 Fuk Wing Street Shamshuipo","lat":22.333956,"lng":114.159627,"radius":250},
   {"name":"Alliance Primary School, Tai Hang Tung","address":"23 & 13 Tong Yam Street Tai Hang Tung Kowloon","lat":22.331087,"lng":114.170268,"radius":250},
   {"name":"The ELCHK Faith Lutheran School","address":"8 Pui Tak Street Shek Kip Mei","lat":22.335407,"lng":114.16526,"radius":250},
   {"name":"HK Sze Yap C&IA San Wui Commercial Society School","address":"21 Tong Yam Street Tai Hang Tung","lat":22.330807,"lng":114.170249,"radius":250},
   {"name":"Maryknoll Fathers' School (Primary Section)","address":"11 Hoi Lai Street Sham Shui Po Kowloon","lat":22.331495,"lng":114.145962,"radius":250},
   {"name":"St. Francis Of Assisi's Caritas School","address":"7 Wai Chi Street, Shek Kip Mei, Sham Shui Po, Kowloon","lat":22.333683,"lng":114.166915,"radius":250},
   {"name":"Good Counsel Catholic Primary School","address":"9 Kwong Lee Road Shamshuipo","lat":22.340515,"lng":114.159854,"radius":250},
   {"name":"Hoi Ping Chamber Of Commerce Primary School","address":"700 Laichikok Road","lat":22.3343,"lng":114.153519,"radius":250},
   {"name":"Ka Ling School Of The Precious Blood","address":"280 Hai Tan Street Shamshuipo","lat":22.329795,"lng":114.157144,"radius":250},
   {"name":"Laichikok Catholic Primary School","address":"6 Hing Wah Street West Sham Shui Po","lat":22.33341,"lng":114.149121,"radius":250},
   {"name":"Li Cheng Uk Government Primary School","address":"43 Tonkin Street Shamshuipo","lat":22.338185,"lng":114.160133,"radius":250},
   {"name":"SKH Kei Fook Primary School","address":"555 Cheung Sha Wan Road Sham Shui Po KLN","lat":22.336437,"lng":114.154473,"radius":250},
   {"name":"SKH Kei Oi Primary School","address":"15 Kwong Lee Road Li Cheng Uk","lat":22.339508,"lng":114.1608,"radius":250},
   {"name":"SKH St. Andrew's Primary School","address":"No. 3 Hoi Lai Street, Shamshuipo, Kowloon","lat":22.330859,"lng":114.147726,"radius":250},
   {"name":"SKH St. Thomas' Primary School","address":"145, Pratas Street, Shamshuipo, Kowloon","lat":22.33456,"lng":114.15853,"radius":250},
   {"name":"Ying Wa Primary School","address":"No 3 Ying Wa Street Shamshuipo","lat":22.330129,"lng":114.153033,"radius":250},
   {"name":"Chan's Creative School","address":"New Wing 71 Boundary Street","lat":22.327145,"lng":114.172339,"radius":250},
   {"name":"Delia English Primary School and Kindergarten","address":"84-86 Broadway, Mei Foo Sun Chuen, Kowloon","lat":22.335042,"lng":114.140778,"radius":250},
   {"name":"Kowloon Rhenish School","address":"2A Dianthus Road Yau Yat Chuen","lat":22.329646,"lng":114.175577,"radius":250},
   {"name":"PLK Choi Kai Yau School","address":"6 Caldecott Road, Sham Shui Po, Kowloon","lat":22.344611,"lng":114.148382,"radius":250},
   {"name":"St. Margaret's Co-educational English Secondary and Primary School","address":"33 Sham Mong Road Shamshuipo","lat":22.330543,"lng":114.15178,"radius":250},
   {"name":"Tak Nga Primary School","address":"20 Tat Chee Avenue Yau Yat Chuen","lat":22.330595,"lng":114.175337,"radius":250},
   {"name":"Tsung Tsin Primary School and Kindergarten","address":"58 Tai Po Road Sham Shui Po","lat":22.329129,"lng":114.167701,"radius":250},
   {"name":"Tack Ching Primary School","address":"125 Un Chau Street Shamshuipo","lat":22.333413,"lng":114.161444,"radius":250},
   {"name":"Five Districts Business Welfare Association School","address":"70 Wing Hong Street, Po On Road","lat":22.34101,"lng":114.154512,"radius":250},
   {"name":"Lingnan University Alumni Association (Hong Kong) Primary School","address":"33 Pak Tin Street Kowloon","lat":22.334986,"lng":114.165194,"radius":250},
   {"name":"CCC Heep Woh Primary School (Cheung Sha Wan)","address":"191b Prince Edward Road,West","lat":22.324039,"lng":114.172134,"radius":250},
   {"name":"PLK Dr. Jimmy Wong Chi-Ho ( Tin Sum Valley ) Primary School","address":"Estate Primary School, Lung Hang Estate Shatin NT","lat":22.367884,"lng":114.177715,"radius":250},
   {"name":"CUHK FAA Thomas Cheung School","address":"Ka Tin Court Hin Keng Estate Shatin","lat":22.360732,"lng":114.172507,"radius":250},
   {"name":"Carmel Alison Lam Primary School","address":"Hin Keng Estate Shatin","lat":22.366388,"lng":114.174179,"radius":250},
   {"name":"Christian Alliance H.C. Chan Primary School","address":"Chun Shek Estate Shatin","lat":22.371659,"lng":114.187239,"radius":250},
   {"name":"F.M.B. Chun Lei Primary School","address":"Sun Chui Estate Shatin","lat":22.370537,"lng":114.181138,"radius":250},
   {"name":"Free Methodist Mei Lam Primary School","address":"Mei Shing Court, Tai Wai, Shatin, N.T.","lat":22.378417,"lng":114.177726,"radius":250},
   {"name":"Shatin Government Primary School","address":"Sun Tin Wai Estate Shatin","lat":22.368857,"lng":114.186193,"radius":250},
   {"name":"TWGHs Sin Chu Wan Primary School","address":"Annex Block, 38 Chik Fuk Street NT Tai Wai Shatin","lat":22.375431,"lng":114.179629,"radius":250},
   {"name":"HKTA Shun Yeung Primary School","address":"30 On Chun Street Ma On Shan, Shatin","lat":22.426412,"lng":114.228484,"radius":250},
   {"name":"Kowloon City Baptist Church Hay Nien Primary School","address":"Chevalier Garden Ma On Shan Shatin","lat":22.405355,"lng":114.222359,"radius":250},
   {"name":"ELCHK Ma On Shan Lutheran Primary School","address":"Heng On Estate Ma On Shan Shatin","lat":22.422058,"lng":114.232406,"radius":250},
   {"name":"Ma On Shan Methodist Primary School","address":"11 Hang Ming Street Ma On Shan Shatin NT","lat":22.417515,"lng":114.225015,"radius":250},
   {"name":"Ma On Shan St. Joseph's Primary School","address":"Heng On Estate Ma On Shan Shatin","lat":22.417032,"lng":114.230614,"radius":250},
   {"name":"Ng Clan's Association Tai Pak Memorial School","address":"Kam Ying Court Ma On Shan Shatin","lat":22.42141,"lng":114.235028,"radius":250},
   {"name":"PLK Chong Kee Ting Primary School","address":"Yiu On Estate Ma On Shan Shatin","lat":22.419694,"lng":114.231701,"radius":250},
   {"name":"Christian Alliance Toi Shan H C Chan Primary School","address":"Chung On Estate Ma On Shan Shatin","lat":22.338568,"lng":114.176633,"radius":250},
   {"name":"Baptist Lui Ming Choi Primary School","address":"2 Tak Wing Street City One Shatin","lat":22.38794,"lng":114.202246,"radius":250},
   {"name":"Dr. Catherine F. Woo Memorial School","address":"8 Tak Po Street City One Shatin","lat":22.385117,"lng":114.204667,"radius":250},
   {"name":"Sha Tin Wai Dr. Catherine F. Woo Memorial School","address":"2 Jat Min Chuen Street Shatin New Territories ( Excluding 1/F Store Room )","lat":22.376022,"lng":114.192396,"radius":250},
   {"name":"LKWFSL Wong Yiu Nam Primary School","address":"Kwong Yuen Estate Shatin","lat":22.382325,"lng":114.214924,"radius":250},
   {"name":"Leung Kui Kau Lutheran Primary School","address":"5 On King Street Shatin","lat":22.392081,"lng":114.205845,"radius":250},
   {"name":"PLK Siu Hon Sum Primary School","address":"Sui Wo Court Area 42A Shatin","lat":22.393402,"lng":114.194892,"radius":250},
   {"name":"PLK Chee Jing Yin Primary School","address":"6d Sha Kok Street, Pok Hong Estate, Shatin, NT","lat":22.376181,"lng":114.196034,"radius":250},
   {"name":"SKH Holy Spirit Primary School","address":"Lek Yuen Estate Shatin","lat":22.385818,"lng":114.191675,"radius":250},
   {"name":"Shatin Methodist Primary School","address":"Kwong Yuen Estate Shatin","lat":22.380158,"lng":114.214571,"radius":250},
   {"name":"The Salvation Army Tin Ka Ping School","address":"Pok Hong Estate Shatin","lat":22.375201,"lng":114.192477,"radius":250},
   {"name":"Wo Che Lutheran School","address":"Wo Che Estate Shatin","lat":22.388219,"lng":114.193787,"radius":250},
   {"name":"PLK Riverain Primary School","address":"28 On Chun Street Ma On Shan Shatin","lat":22.425805,"lng":114.227903,"radius":250},
   {"name":"SKH Ma On Shan Holy Spirit Primary School","address":"35 Ning Tai Road Ma On Shan Shatin","lat":22.407226,"lng":114.220265,"radius":250},
   {"name":"GCCITKD Cheong Wong Wai Primary School","address":"Sun Chui Estate Shatin","lat":22.37165,"lng":114.180164,"radius":250},
   {"name":"Immaculate Heart Of Mary School","address":"1 Mei Tin Road, Tai Wai, Shatin, New Territories","lat":22.371002,"lng":114.176143,"radius":250},
   {"name":"Kowloon City Baptist Church Hay Nien (Yan Ping) Primary School","address":"Sun Chui Estate Shatin","lat":22.368808,"lng":114.18206,"radius":250},
   {"name":"Ma On Shan Ling Liang Primary School","address":"Lee On Estate Ma On Shan Shatin","lat":22.424729,"lng":114.240802,"radius":250},
   {"name":"Chi Hong Primary School","address":"1 Yuen Cheong Lane Shatin","lat":22.382031,"lng":114.197058,"radius":250},
   {"name":"Shatin Tsung Tsin School","address":"Lek Yuen Estate Shatin","lat":22.385606,"lng":114.190739,"radius":250},
   {"name":"Stewards Pooi Kei Primary School","address":"Lok Ha Square Fo Tan Shatin","lat":22.400136,"lng":114.197905,"radius":250},
   {"name":"The Little Flower's Catholic Primary School","address":"Wo Che Estate Shatin","lat":22.385829,"lng":114.193787,"radius":250},
   {"name":"Baptist (STW) Lui Ming Choi Primary School","address":"8 Yuen Chau Kok Road Shatin","lat":22.381291,"lng":114.197927,"radius":250},
   {"name":"HKBU Affiliated School Wong Kam Fai Secondary and Primary School","address":"No 6 On Muk Lane Shek Mun Shatin NT","lat":22.387244,"lng":114.209687,"radius":250},
   {"name":"Pui Kiu College","address":"Area 38A Shatin","lat":22.374337,"lng":114.172983,"radius":250},
   {"name":"Taoist Ching Chung Primary School","address":"Shan King Estate, Tuen Mun, N.T.","lat":22.397507,"lng":113.966831,"radius":250},
   {"name":"Taoist Ching Chung Primary School (Wu King Estate)","address":"4 Wu Cheong Street, Wu King Estate, Tuen Mun, NT","lat":22.374583,"lng":113.965345,"radius":250},
   {"name":"Lok Sin Tong Leung Wong Wai Fong Memorial School","address":"Shan King Estate Area 7 & 8 Tuen Mun","lat":22.396287,"lng":113.963575,"radius":250},
   {"name":"PLK Vicwood KT Chong No.2 Primary School","address":"Tai Hing Estate Tuen Mun","lat":22.401611,"lng":113.972384,"radius":250},
   {"name":"PLK HKTA Yuen Yuen Primary School","address":"26 Tsing Hoi Circuit Castle Peak Road NT Tuen Mun","lat":22.386772,"lng":113.980433,"radius":250},
   {"name":"CCC Hoh Fuk Tong Primary School","address":"41 Lung Mun Road Tuen Mun NT","lat":22.386611,"lng":113.967472,"radius":250},
   {"name":"CCC Mong Wong Far Yok Memorial Primary School","address":"Estate School, Tin King Estate, Area 1, Tuen Mun, N.T.","lat":22.406236,"lng":113.966277,"radius":250},
   {"name":"FDBWA Chow Chin Yau School","address":"Estate Primary School No. 4 Siu Shan Court Area 28 Tuen Mun NT","lat":22.3779,"lng":113.962878,"radius":250},
   {"name":"HKECA Wu Si Chong Memorial School","address":"Estate Primary School Kin Sang Estate Tuen Mun NT","lat":22.406417,"lng":113.970236,"radius":250},
   {"name":"Hong Kong Red Swastika Society Tuen Mun Primary School","address":"Leung King Estate Area 1 Tuen Mun","lat":22.404012,"lng":113.961371,"radius":250},
   {"name":"LKWFSL Lau Tak Yung Memorial Primary School","address":"263 Wu Chui Road Tuen Mun NT","lat":22.373018,"lng":113.968497,"radius":250},
   {"name":"PLK Leung Chow Shun Kam Primary School","address":"Estate Primary School No. 3 Wu King Estate, Phase 4 Area 28 Tuen Mun NT","lat":22.376681,"lng":113.964189,"radius":250},
   {"name":"PLK Women’s Welfare Club (WD) Fung Lee Pui Yiu Primary School","address":"So Kwun Wat, Tuen Mun, NT (Kwun Tsing Road No.11)","lat":22.373023,"lng":113.995374,"radius":250},
   {"name":"PLK Horizon East Primary School","address":"3 Hing Fu Street Tuen Mun","lat":22.411162,"lng":113.966669,"radius":250},
   {"name":"SRBCEPSA Ho Sau Ki School","address":"Estate School No. 1 Tin King Estate NT Tuen Mun","lat":22.405642,"lng":113.966524,"radius":250},
   {"name":"Toi Shan Association Primary School","address":"14 Shek Pai Tau Road, Tuen Mun N.T.","lat":22.401578,"lng":113.971893,"radius":250},
   {"name":"Tuen Mun Government Primary School","address":"Siu Hong Court Tuen Mun NT","lat":22.409603,"lng":113.977313,"radius":250},
   {"name":"Yan Tak Catholic Primary School","address":"Estate Primary School No 2 Phase II, Butterfly Estate Tuen Mun NT","lat":22.376329,"lng":113.963604,"radius":250},
   {"name":"AD & FD POHL Mrs Cheng Yam On School","address":"No. 3 Tuen Lee Street, Tuen Mun, N.T.","lat":22.391892,"lng":113.978799,"radius":250},
   {"name":"AD & FD POHL Mrs Cheng Yam On Millennium School","address":"111 So Kwun Wat Road, Tuen Mun, N.T.","lat":22.372182,"lng":114.003999,"radius":250},
   {"name":"Castle Peak Catholic Primary School","address":"2 Tuen Mun Heung Sze Wui Road Tuen Mun NT","lat":22.394826,"lng":113.97506,"radius":250},
   {"name":"Hing Tak School","address":"1 Hing Ping Road, Tuen Mun, N.T.","lat":22.411029,"lng":113.98169,"radius":250},
   {"name":"Islamic Primary School","address":"Estate Primary School No. 1 Yau Oi Estate Phase 1A Tuen Mun NT","lat":22.388695,"lng":113.972289,"radius":250},
   {"name":"Shun Tak Fraternal Association Ho Yat Tung Primary School","address":"Estate Primary School No 5 Yau Oi Estate, Area 15 Tuen Mun NT","lat":22.389574,"lng":113.97404,"radius":250},
   {"name":"Shun Tak Fraternal Association Lee Kam Primary School","address":"Road 23 , So Kwun Wat, Tuen Mun, NT","lat":22.371989,"lng":114.003524,"radius":250},
   {"name":"Shun Tak Fraternal Association Wu Siu Kui Memorial Primary School","address":"Estate Primary School No 3 On Ting Estate Tuen Mun NT","lat":22.386432,"lng":113.977023,"radius":250},
   {"name":"Yan Chai Hospital Ho Sik Nam Primary School","address":"Standard Primary School Area 16 NT Tuen Mun","lat":22.385028,"lng":113.971617,"radius":250},
   {"name":"Yan Oi Tong Madam Lau Wong Fat Primary School","address":"Estate Primary School No 6 On Ting Estate Tuen Mun NT","lat":22.389671,"lng":113.977245,"radius":250},
   {"name":"Lutheran Tsang Shing Siu Leun School","address":"Estate Primary School No 5 Phase III, Butterfly Estate Area 28 Tuen Mun NT","lat":22.375482,"lng":113.961424,"radius":250},
   {"name":"PLK Fong Wong Kam Chuen Primary School","address":"Leung King Estate Tuen Mun","lat":22.406955,"lng":113.962391,"radius":250},
   {"name":"Yan Chai Hospital Law Chan Chor Si Primary School","address":"29 Wu King Road, Tuen Mun, N.T.","lat":22.374754,"lng":113.966272,"radius":250},
   {"name":"Lui Cheung Kwong Lutheran Primary School","address":"On Ting Estate Tuen Mun","lat":22.386414,"lng":113.977848,"radius":250},
   {"name":"SKH Mung Yan Primary School","address":"No. 1 King Fung Path Tuen Mun NT","lat":22.404344,"lng":113.980082,"radius":250},
   {"name":"CCC But San Primary School","address":"28 Castle Peak Road, San Hui Tuen Mun NT","lat":22.397195,"lng":113.978008,"radius":250},
   {"name":"TWGHs Tang Shiu Kin Primary School","address":"On Ting Estate Tuen Mun NT","lat":22.388321,"lng":113.977199,"radius":250},
   {"name":"PLK Tin Ka Ping Millennium Primary School","address":"4641 Tai Po Road, Tai Po Kau, Tai Po, N.T.","lat":22.4305,"lng":114.196442,"radius":250},
   {"name":"Sung Tak Wong Kin Sheung Memorial School","address":"Tung Cheong Street Tai Po","lat":22.448838,"lng":114.169451,"radius":250},
   {"name":"Tai Po Old Market Public School","address":"10 On Cheung Road Tai Po","lat":22.451644,"lng":114.167028,"radius":250},
   {"name":"Tai Po Old Market Public School (Plover Cove)","address":"7 Plover Cove Road Tai Po","lat":22.448909,"lng":114.170378,"radius":250},
   {"name":"The Education University of Hong Kong Jockey Club Primary School","address":"10 Lo Ping Road Tai Po","lat":22.469713,"lng":114.194715,"radius":250},
   {"name":"Yan Chai Hospital Choi Hin To Primary School","address":"Wan Tau Tong Estate Area 6 Tai Po","lat":22.441542,"lng":114.166432,"radius":250},
   {"name":"HKTA Wun Tsuen Ng Lai Wo Memorial School","address":"Estate Primary School No.3 Tai Yuen Estate Area 16 Tai Po NT","lat":22.456497,"lng":114.168521,"radius":250},
   {"name":"NTWJWAL Leung Sing Tak Primary School","address":"Tai Yuen Estate Tai Po","lat":22.454509,"lng":114.166803,"radius":250},
   {"name":"PLK Tin Ka Ping Primary School","address":"Area 6, Wan Tau Tong Estate Tai Po","lat":22.441549,"lng":114.167042,"radius":250},
   {"name":"SKH Yuen Chen Maun Chen Primary School","address":"Kwong Fuk Estate Tai Po","lat":22.447349,"lng":114.173221,"radius":250},
   {"name":"SKH Yuen Chen Maun Chen Jubilee Primary School","address":"Fu Heng Estate, Tai Po","lat":22.459488,"lng":114.172328,"radius":250},
   {"name":"Sacred Heart of Mary Catholic Primary School","address":"Fu Heng Estate Phase I Tai Po","lat":22.457165,"lng":114.171674,"radius":250},
   {"name":"Sam Shui Natives Association Huen King Wing School","address":"Estate Primary School No. 1 Fu Shin Estate Tai Po NT","lat":22.452292,"lng":114.176211,"radius":250},
   {"name":"Hong Kong and Kowloon Kaifong Women's Association Sun Fong Chung Primary School","address":"Estate Primary School No. 3 Fu Shin Estate, Phase III, Area 17 Tai Po NT","lat":22.453916,"lng":114.177527,"radius":250},
   {"name":"Tai Po Government Primary School","address":"8, Tai Wo Road, Tai Po, N.T.","lat":22.45304,"lng":114.159973,"radius":250},
   {"name":"Tai Po Baptist Public School","address":"Kwong Fuk Estate Tai Po","lat":22.447163,"lng":114.175675,"radius":250},
   {"name":"Tai Po Methodist School","address":"10 Tung Lung Road Tai Po","lat":22.45663,"lng":114.174822,"radius":250},
   {"name":"Lam Tsuen Public Wong Fook Luen Memorial School","address":"Tai Wo Estate Tai Po","lat":22.450527,"lng":114.163391,"radius":250},
   {"name":"Hoi Pa Street Government Primary School","address":"1 Kai Chi Close Tsuen Wan NT","lat":22.372072,"lng":114.115021,"radius":250},
   {"name":"Hong Kong Baptist Convention Primary School","address":"Belvedere Garden 2 Lai Shun Road Tsuen Wan NT","lat":22.370793,"lng":114.100139,"radius":250},
   {"name":"Si Yuan School of the Precious Blood","address":"2 Shing Mun Road,Tsuen Wan,N.T.","lat":22.370629,"lng":114.122163,"radius":250},
   {"name":"Tsuen Wan Chiu Chow Public School","address":"80 Hoi Pa Street Tsuen Wan NT","lat":22.372403,"lng":114.114446,"radius":250},
   {"name":"CCC Chuen Yuen First Primary School","address":"6-8 Tai Uk Street Tsuen Wan NT","lat":22.370352,"lng":114.114994,"radius":250},
   {"name":"CCC Kei Wai Primary School","address":"167-185 Tsuen King Circuit Tsuen Wan NT","lat":22.379138,"lng":114.104641,"radius":250},
   {"name":"CCC Kei Wai Primary School (Ma Wan)","address":"12 Pak Lam Road Park Island Ma Wan Tsuen Wan NT","lat":22.350654,"lng":114.059934,"radius":250},
   {"name":"Sham Tseng Catholic Primary School","address":"37 Castle Peak Road, Sham Tseng, Tsuen Wan, New Territories","lat":22.367425,"lng":114.06037,"radius":250},
   {"name":"Chai Wan Kok Catholic Primary School","address":"2-10 On Yin Street Tsuen Wan NT","lat":22.378151,"lng":114.106487,"radius":250},
   {"name":"Emmanuel Primary School","address":"13 Miles Castle Peak Road Sham Tseng NT","lat":22.368482,"lng":114.060261,"radius":250},
   {"name":"HKTA YYI Shek Wai Kok Primary School","address":"Estate Primary School No. 2 Shek Wai Kok Estate Tsuen Wan NT","lat":22.37466,"lng":114.122211,"radius":250},
   {"name":"Holy Cross Lutheran School","address":"31 Lo Tak Court Tsuen Wan NT","lat":22.373156,"lng":114.114745,"radius":250},
   {"name":"Shak Chung Shan Memorial Catholic Primary School","address":"Riviera Gardens 39 Wing Shun Street Tsuen Wan NT","lat":22.363721,"lng":114.113442,"radius":250},
   {"name":"Tsuen Wan Catholic Primary School","address":"37-41 Tak Wah Street Tsuen Wan NT","lat":22.369206,"lng":114.119536,"radius":250},
   {"name":"Tsuen Wan Government Primary School","address":"600 Castle Peak Road Area 2 Tsuen Wan NT","lat":22.372053,"lng":114.100848,"radius":250},
   {"name":"Tsuen Wan Public Ho Chuen Yiu Memorial Primary School","address":"Estate Primary School No. 1 Shek Wai Kok Estate Tsuen Wan NT","lat":22.375457,"lng":114.12563,"radius":250},
   {"name":"Lei Muk Shue Catholic Primary School","address":"Estate School No. 2 Lei Muk Shue Estate Tsuen Wan NT","lat":22.377747,"lng":114.133936,"radius":250},
   {"name":"Ho Shun Primary School (Sponsored by Sik Sik Yuen)","address":"Estate School No. 3 Lei Muk Shue Estate NT","lat":22.379816,"lng":114.13424,"radius":250},
   {"name":"SKH Chu Oi Primary School (Lei Muk Shue)","address":"Lei Muk Shue Estate Tsuen Wan NT","lat":22.379396,"lng":114.134043,"radius":250},
   {"name":"Kwai Ming Wu Memorial School Of The Precious Blood","address":"Luk Yeung Sun Chuen 22-66 Wai Tsuen Road Tsuen Wan NT","lat":22.374326,"lng":114.119013,"radius":250},
   {"name":"Mary Of Providence Primary School","address":"68 Ho Pui Street Tsuen Wan NT","lat":22.368277,"lng":114.116111,"radius":250},
   {"name":"Rosebud Primary School","address":"UG 28-37 Waterside Plaza, 38 Wing Shun Street, Tsuen Wan, NT","lat":22.363648,"lng":114.114371,"radius":250},
   {"name":"Buddhist Wong Cheuk Um Primary School","address":"11 Eastern Hospital Road, Causeway Bay, Hong Kong","lat":22.276126,"lng":114.190211,"radius":250},
   {"name":"Marymount Primary School","address":"336 Tai Hang Road Wahchai","lat":22.262984,"lng":114.190565,"radius":250},
   {"name":"Raimondi College Primary Section","address":"1E, Shiu Fai Terrace, Stubbs Road, Wan Chai , H.K.","lat":22.273449,"lng":114.175893,"radius":250},
   {"name":"Sir Ellis Kadoorie (Sookunpo) Primary School","address":"9 Eastern Hospital Road Sookunpo","lat":22.276758,"lng":114.189708,"radius":250},
   {"name":"St. Francis' Canossian School","address":"42 - 44 St. Francis Street, Wanchai, Hong Kong","lat":22.275104,"lng":114.168494,"radius":250},
   {"name":"St. Paul's Primary Catholic School","address":"81A Wong Nai Chung Road Happy Valley","lat":22.272976,"lng":114.184443,"radius":250},
   {"name":"Li Sing Tai Hang School","address":"73 Wun Sha Street Tai Hang","lat":22.277347,"lng":114.193899,"radius":250},
   {"name":"Po Kok Primary School","address":"11-15 Shan Kwong Road","lat":22.267341,"lng":114.185331,"radius":250},
   {"name":"PLK Gold & Silver Exchange Society Pershing Tsang School","address":"12 Link Road, Causeway Bay, Hong Kong","lat":22.275195,"lng":114.185061,"radius":250},
   {"name":"Pun U Association Wah Yan Primary School","address":"1F Shiu Fai Terrace Stubbs Road, Wan Chai, Hong Kong","lat":22.273143,"lng":114.176197,"radius":250},
   {"name":"SKH St. James' Primary School","address":"110 Kennedy Road, Wanchai, Hong Kong","lat":22.272552,"lng":114.173684,"radius":250},
   {"name":"TWGHs Li Chi Ho Primary School","address":"280 Queen's Road East, Wanchai, Hong Kong","lat":22.275492,"lng":114.177196,"radius":250},
   {"name":"Rosaryhill School (Primary Section)","address":"41B Stubbs Road, Rosary Hill","lat":22.263518,"lng":114.182903,"radius":250},
   {"name":"The True Light Middle School of Hong Kong (Primary Section)","address":"50 Tai Hang Road","lat":22.275727,"lng":114.194424,"radius":250},
   {"name":"Hennessy Road Government Primary School","address":"169 Thomson Road Wanchai","lat":22.277429,"lng":114.175597,"radius":250},
   {"name":"Hennessy Road Government Primary School (Causeway Bay)","address":"3 Eastern Hospital Road, Causeway Bay","lat":22.277801,"lng":114.188813,"radius":250},
   {"name":"Precious Blood Primary School","address":"72 Sing Woo Road Happy Valley","lat":22.266306,"lng":114.187957,"radius":250},
   {"name":"St. Joseph's Primary School","address":"48 Wood Road","lat":22.275546,"lng":114.176607,"radius":250},
   {"name":"St. Paul's Convent School (Primary Section)","address":"GR-6/F Of Primary School Building 140 Leighton Road, Causeway Bay, Hong Kong","lat":22.278622,"lng":114.187209,"radius":250},
   {"name":"Po Yan Oblate Primary School","address":"Block 22 Tung Tau Estate Wong Tai Sin KLN","lat":22.333056,"lng":114.193361,"radius":250},
   {"name":"Choi Wan St Joseph's Primary School","address":"Estate School No. 2 Choi Wan Estate Kowloon","lat":22.334306,"lng":114.21227,"radius":250},
   {"name":"Ho Lap Primary School (Sponsored by Sik Sik Yuen)","address":"Tsz Lok Estate Phase Ii Tsz Wan Shan Wong Tai Sin KLN","lat":22.347167,"lng":114.198476,"radius":250},
   {"name":"Tsz Wan Shan St Bonaventure Catholic Primary School","address":"Tsz Ching Estate Wong Tai Sin","lat":22.349749,"lng":114.20347,"radius":250},
   {"name":"Confucian Tai Shing Primary School","address":"10 Tai Shing Street Wong Tai Sin KLN","lat":22.337373,"lng":114.193882,"radius":250},
   {"name":"Baptist Rainbow Primary School","address":"Chuk Yuen South Estate Wong Tai Sin","lat":22.344702,"lng":114.189739,"radius":250},
   {"name":"Bishop Ford Memorial School","address":"Pui Man Village Tung Tau Tsuen KLN","lat":22.335145,"lng":114.190094,"radius":250},
   {"name":"Price Memorial Catholic Primary School","address":"Tin Ma Court 53 Chuk Yuen Road Wong Tai Sin KLN","lat":22.343917,"lng":114.187259,"radius":250},
   {"name":"Wong Tai Sin Catholic Primary School","address":"102 Ching Tak Street Wong Tai Sin KLN","lat":22.340972,"lng":114.193889,"radius":250},
   {"name":"Wong Tai Sin Government Primary School","address":"100 Ching Tak Street Wong Tai Sin KLN","lat":22.340965,"lng":114.193601,"radius":250},
   {"name":"CCC Kei Wa Primary School","address":"Choi Hung Estate Wong Kuk Avenue Wong Tai Sin KLN","lat":22.336061,"lng":114.206642,"radius":250},
   {"name":"Canossa Primary School (San Po Kong)","address":"9 Choi Yee Lane San Po Kong KLN","lat":22.337077,"lng":114.2016,"radius":250},
   {"name":"Chun Tok School","address":"171 Hammer Hill Road Diamond Hill KLN","lat":22.340332,"lng":114.206767,"radius":250},
   {"name":"St. Bonaventure Catholic Primary School","address":"4 Fung Lai Road Fung Tak Estate Diamond Hill Kowloon","lat":22.344839,"lng":114.201963,"radius":250},
   {"name":"St. Patrick's Catholic Primary School (Po Kong Village Road)","address":"178 Po Kong Village Road Wong Tai Sin KLN","lat":22.344478,"lng":114.204457,"radius":250},
   {"name":"CCC Kei Tsz Primary School","address":"152 Tsz Wan Shan Road Kowloon","lat":22.350125,"lng":114.196415,"radius":250},
   {"name":"Tsz Wan Shan Catholic Primary School","address":"172 Po Kong Village Road Wong Tai Sin KLN","lat":22.345826,"lng":114.20439,"radius":250},
   {"name":"Good Hope Primary School Cum Kindergarten (Primary Section)","address":"383 Jat's Incline","lat":22.334423,"lng":114.218693,"radius":250},
   {"name":"SKH Yat Sau Primary School","address":"Choi Hung Estate Luk Lau Avenue Wong Tai Sin KLN","lat":22.336585,"lng":114.204916,"radius":250},
   {"name":"Canossa Primary School","address":"5 Chun Yan Street Chuk Yuen KLN","lat":22.340366,"lng":114.197301,"radius":250},
   {"name":"Ng Wah Catholic Primary School","address":"5 Choi Hung Road San Po Kong","lat":22.333237,"lng":114.194953,"radius":250},
   {"name":"PLK Stanley Ho Sau Nan Primary School","address":"11 Muk Hung Street, Kowloon City, Kowloon","lat":22.332262,"lng":114.203823,"radius":250},
   {"name":"SKH Kei Tak Primary School","address":"Tai Shing Street Wong Tai Sin KLN","lat":22.337146,"lng":114.19437,"radius":250},
   {"name":"St. Patrick's School","address":"12 Fu Mei Street East Wang Tau Hom","lat":22.338311,"lng":114.188901,"radius":250},
   {"name":"Islamic Dharwood Pau Memorial Primary School","address":"Tsz Lok Estate Phase I Tsz Wan Shan KLN","lat":22.349754,"lng":114.197001,"radius":250},
   {"name":"PLK Mrs Chan Nam Chong Memorial Primary School","address":"Choi Wan Estate Clear Water Bay Road KLN","lat":22.334712,"lng":114.216573,"radius":250},
   {"name":"PLK Grandmont Primary School","address":"Po Kong Village Road Wong Tai Sin KLN","lat":22.344896,"lng":114.205161,"radius":250},
   {"name":"SKH Ching Shan Primary School","address":"Choi Hung Estate Luk Lau Avenue Wong Tai Sin KLN","lat":22.33613,"lng":114.205236,"radius":250},
   {"name":"International Christian Quality Music Secondary and Primary School","address":"Po Kong Village Road Diamond Hill Kowloon On New Kowloon Inland Lot No6358 KLN","lat":22.345553,"lng":114.205646,"radius":250},
   {"name":"Our Lady's Primary School","address":"116 Shatin Pass Road Wong Tai Sin","lat":22.344944,"lng":114.195967,"radius":250},
   {"name":"Bishop Walsh Primary School","address":"150 Junction Road","lat":22.3347,"lng":114.187779,"radius":250},
   {"name":"Tun Yu School","address":"San Tin Yuen Long","lat":22.498382,"lng":114.077125,"radius":250},
   {"name":"Yuen Long Po Kok Primary School","address":"DD 124, Lots 2558 & 2560 S A Tan Kwai Tsuen Road Tan Kwai Tsuen, Yuen Long NT","lat":22.430406,"lng":113.998875,"radius":250},
   {"name":"YL Long Ping Estate Tung Koon Primary School","address":"Phase 1, Long Ping Estate, Yuen Long, N.T.","lat":22.451652,"lng":114.023636,"radius":250},
   {"name":"Tin Shui Wai Methodist Primary School","address":"Phase 1 Area 31 Tin Shui Wai","lat":22.459848,"lng":113.998139,"radius":250},
   {"name":"Kwong Ming School","address":"Shui Pin Wai Estate Yuen Long","lat":22.444753,"lng":114.020127,"radius":250},
   {"name":"Yuen Long Merchants Association Primary School","address":"244 Castle Peak Road Yuen Long","lat":22.444224,"lng":114.024016,"radius":250},
   {"name":"C&MA Chui Chak Lam Memorial School","address":"Kin Tak Street Yuen Long","lat":22.441096,"lng":114.031997,"radius":250},
   {"name":"CCC Chun Kwong Primary School","address":"5 Chung Sing Path, Yuen Long, NT","lat":22.443976,"lng":114.026507,"radius":250},
   {"name":"Cumberland Presbyterian Church Yao Dao Primary School","address":"Area 102 Tin Shui Wai Phase 5 (School 3) Yuen Long NT","lat":22.463527,"lng":114.000412,"radius":250},
   {"name":"Chinese YMCA Primary School","address":"Area 102 Tin Shui Wai Phase 4 (School 2) Yuen Long NT","lat":22.463914,"lng":114.000671,"radius":250},
   {"name":"Chiu Yang Por Yen Primary School","address":"55 Tin Wah Road, Tin Shui Wai, Yuen Long, N.T.","lat":22.463533,"lng":114.006282,"radius":250},
   {"name":"Chiu Yang Primary School Of Hong Kong","address":"Tin Yiu Estate, Phase III NT Tin Shui Wai , Yuen Long","lat":22.451588,"lng":114.004594,"radius":250},
   {"name":"HKFYG Lee Shau Kee Primary School","address":"11 Tin Wing Road Tin Shui Wai NT","lat":22.461267,"lng":114.001072,"radius":250},
   {"name":"Ho Ming Primary School (Sponsored by Sik Sik Yuen)","address":"2 Tin Pak Road, Tin Shui Wai, Yuen Long, NT","lat":22.454002,"lng":114.006164,"radius":250},
   {"name":"Hong Kong Student Aid Society Primary School","address":"2 Tin Yip Road, Tin Shui Wai, N.T.","lat":22.465121,"lng":114.005151,"radius":250},
   {"name":"Lions Clubs International Ho Tak Sum Primary School","address":"Area 3 (PS2) Phase 4, Tin Shui Wai, Yuen Long, NT","lat":22.447291,"lng":114.001216,"radius":250},
   {"name":"Lok Sin Tong Leung Kau Kui Primary School","address":"Estate Primary School Tin Shui Estate, Phase IV Tin Shui Wai, Yuen Long NT","lat":22.453618,"lng":113.998957,"radius":250},
   {"name":"Queen Elizabeth School Old Students' Association Branch Primary School","address":"Area 3, Phase 4 Tin Shui Wai Yuen Long NT","lat":22.447243,"lng":114.002707,"radius":250},
   {"name":"Queen Elizabeth School Old Students' Association Primary School","address":"Estate Primary School Tin Yiu Estate, Phase I Tin Shui Wai NT","lat":22.448905,"lng":114.004471,"radius":250},
   {"name":"SKH Tin Shui Wai Ling Oi Primary School","address":"Primary School 1 Area 111 Tin Shui Wai, Yuen Long NT","lat":22.467743,"lng":114.001019,"radius":250},
   {"name":"TWGHs Leo Tung-hai LEE Primary School","address":"Area 30, Tin Shui Wai Yuen Long","lat":22.460145,"lng":113.994824,"radius":250},
   {"name":"TWGHs Yiu Dak Chi Memorial Primary School","address":"Estate Primary School, Phase I, Tin Shui Estate Tin Shui Wai, NT","lat":22.457458,"lng":113.996305,"radius":250},
   {"name":"Tin Shui Wai Catholic Primary School","address":"28 Tin Pak Road NT Tin Shui Wai, Yuen Long","lat":22.457815,"lng":114.005972,"radius":250},
   {"name":"Tin Shui Wai Government Primary School","address":"No. 8 Tin Shui Road, Tin Shui Wai, Yuen Long, NT","lat":22.458428,"lng":113.998863,"radius":250},
   {"name":"YLPMS Alumni Association Ying Yip Primary School","address":"86 Tin Shui Road, Tin Shui Wai, Yuen Long","lat":22.468177,"lng":114.001895,"radius":250},
   {"name":"SKH Ling Oi Primary School","address":"15 Ma Miu Road Yuen Long","lat":22.445909,"lng":114.02157,"radius":250},
   {"name":"YLPMS Alumni Association Primary School","address":"Standard Primary School Area 6, Town Park Road North Shui Ngau Leng Yuen Long NT","lat":22.440862,"lng":114.020542,"radius":250},
   {"name":"Buddhist Chan Wing Kan Memorial School","address":"23 Lam Hau Tsuen Road, Ma Tin, Yuen Long","lat":22.438044,"lng":114.019691,"radius":250},
   {"name":"Chung Sing School","address":"29 Kau Hui Road Yuen Long","lat":22.449092,"lng":114.033128,"radius":250},
   {"name":"Pat Heung Central Primary School","address":"199 Lin Fa Tei, Kam Sheung Road, Pat Heung, Yuen Long, New Territories.","lat":22.431674,"lng":114.086738,"radius":250},
   {"name":"SKH St. Joseph's Primary School","address":"12 Bo Tei Road Kam Tin, Yuen Long","lat":22.438787,"lng":114.067403,"radius":250},
   {"name":"Tung Tak School","address":"Shing Mun San Tsuen, Kam Tin , Yuen Long, N.T.","lat":22.441164,"lng":114.06605,"radius":250},
   {"name":"Yuen Long Government Primary School","address":"Yau Chuen Street Au Tau Yuen Long","lat":22.443138,"lng":114.04344,"radius":250},
   {"name":"W F Joseph Lee Primary School","address":"9 Tin Fai Road Tin Shui Wai, Yuen Long NT","lat":22.465075,"lng":113.996179,"radius":250},
   {"name":"Christian Alliance S.Y. Yeh Memorial Primary School","address":"Area 105, Phase 2 Nt Tin Shui Wai, Yuen Long","lat":22.467761,"lng":113.998099,"radius":250},
   {"name":"Shun Tak Fraternal Association Wu Mien Tuen Primary School","address":"Primary School In Area 110 Phase 4 NT Tin Shui Wai, Yuen Long","lat":22.47107,"lng":114.000653,"radius":250},
   {"name":"Shap Pat Heung Rural Committee Kung Yik She Primary School","address":"No.22 Tin Shing Road, Tin Shui Wai, NT","lat":22.460977,"lng":114.002667,"radius":250},
   {"name":"Xianggang Putonghua Yanxishe Primary School of Science and Creativity","address":"Tin Fu Court, 25 Tin Sau Road, Tin Shui Wai, N.T., Hong Kong","lat":22.464011,"lng":113.998924,"radius":250},
   {"name":"Kwong Ming Ying Loi School","address":"Yuen Ching Road Yuen Long","lat":22.442679,"lng":114.038424,"radius":250},
   {"name":"Lok Sin Tong Leung Kau Kui Primary School (Branch)","address":"Second Primary School Area 101 Nt Tin Shui Wai, Yuen Long","lat":22.46374,"lng":113.996065,"radius":250},
   {"name":"AD & FD POHL Leung Sing Tak School","address":"Long Ping Estate, Phase 3, Yuen Long, N.T.","lat":22.448983,"lng":114.024751,"radius":250},
   {"name":"YL Long Ping Estate Wai Chow School","address":"Phase II Long Ping Estate Yuen Long","lat":22.449711,"lng":114.025077,"radius":250},
   {"name":"Buddhist Wing Yan School","address":"6 Fung Yau Street South Yuen Long","lat":22.441047,"lng":114.033589,"radius":250},
   {"name":"HKMLC Wong Chan Sook Ying Memorial School","address":"Fairview Park D D 104 Lot 4665 Orchid Road East Tai Shang Wai Yuen Long NT","lat":22.472707,"lng":114.049479,"radius":250},
   {"name":"Kam Tin Mung Yeung Public School","address":"Kam Tin Yuen Long","lat":22.440324,"lng":114.060968,"radius":250},
   {"name":"Gigamind English Primary School","address":"Kindergarten A Maywood Court, Kingswood Villas 9 Tin Lung Road Tin Shui Wai, Yuen Long NT","lat":22.460291,"lng":114.00518,"radius":250},
   {"name":"South Yuen Long Government Primary School","address":"No 21, Lam Hau Tsuen Rd Yuen Long New Territories","lat":22.439178,"lng":114.019643,"radius":250},
   {"name":"ELCHK Lutheran Academy","address":"25 Lam Hau Tsuen Road, Ma Tin (District 13), Yuen Long, New Territories","lat":22.436864,"lng":114.019815,"radius":250},
   {"name":"Methodist School","address":"12 Wylie Road, Ho Man Tin, KLN","lat":22.308789,"lng":114.172442,"radius":250},
   {"name":"Canton Road Government Primary School","address":"178 Canton Road Tsimshatsui","lat":22.301283,"lng":114.168301,"radius":250},
   {"name":"Tai Kok Tsui Catholic Primary School (Hoi Fan Road)","address":"20 Hoi Fan Road Tai Kok Tsui","lat":22.322145,"lng":114.155904,"radius":250},
   {"name":"CCC Wanchai Church Kei To Primary School","address":"45 Tung Kun Street, Yau Ma Tei, Kowloon","lat":22.311429,"lng":114.168876,"radius":250},
   {"name":"Jordan Road Government Primary School","address":"1B Nanking Street Yaumatei","lat":22.306209,"lng":114.168895,"radius":250},
   {"name":"St. Mary's Canossian School","address":"162 Austin Road","lat":22.302979,"lng":114.176465,"radius":250},
   {"name":"TWGHs Lo Yu Chik Primary School","address":"Portion of 51 Pitt Street Yaumatei","lat":22.314076,"lng":114.171118,"radius":250},
   {"name":"Tak Sun School","address":"103 Austin Road","lat":22.303817,"lng":114.17225,"radius":250},
   {"name":"Tung Koon District Society Fong Shu Chuen School","address":"43 Tung Kun Street Yaumatei","lat":22.311273,"lng":114.16851,"radius":250},
   {"name":"Yaumati Catholic Primary School","address":"41 Tung Kun Street Yau Ma Tei","lat":22.31132,"lng":114.167833,"radius":250},
   {"name":"Yaumati Catholic Primary School (Hoi Wang Road)","address":"10 Hoi Wang Road Yau Ma Tei Kowloon","lat":22.314013,"lng":114.164321,"radius":250},
   {"name":"Yaumati Kaifong Association School","address":"80 Public Square Street, Yaumatei, Kowloon","lat":22.310271,"lng":114.171711,"radius":250},
   {"name":"CCC Heep Woh Primary School","address":"191B Prince Edward Road","lat":22.324039,"lng":114.172134,"radius":250},
   {"name":"CCC Kei Tsun Primary School","address":"150 Tai Kok Tsui Road Tai Kok Tsui","lat":22.322647,"lng":114.162188,"radius":250},
   {"name":"Fresh Fish Traders' School","address":"33 Sycamore Street Tai Kok Tsui","lat":22.324657,"lng":114.164037,"radius":250},
   {"name":"SKH Kei Wing Primary School","address":"23 Lai Chi Kok Road Tai Kok Tsui","lat":22.322363,"lng":114.167947,"radius":250},
   {"name":"Tai Kok Tsui Catholic Primary School","address":"148 Tai Kok Tsui Road Tai Kok Tsui","lat":22.322094,"lng":114.162188,"radius":250},
   {"name":"Tong Mei Road Government Primary School","address":"170 Tong Mei Road Tai Kok Tsui","lat":22.322855,"lng":114.165709,"radius":250},
   {"name":"Sharon Lutheran School","address":"18 Cherry Street Tai Kok Tsui","lat":22.31893,"lng":114.164992,"radius":250},
   {"name":"Diocesan Girls' Junior School","address":"1 Jordan Road","lat":22.306775,"lng":114.173389,"radius":250},
   {"name":"PLK Camões Tan Siu Lin Primary School","address":"6 Hoi Ting Road Yau Ma Tei","lat":22.315355,"lng":114.16532,"radius":250},
   {"name":"Kowloon Women's Welfare Club Li Ping Memorial School","address":"33 Wylie Road","lat":22.312929,"lng":114.175521,"radius":250},
   {"name":"St. Eugene de Mazenod Oblate Primary School","address":"24 Tin Kwong Road Tokwawan","lat":22.319783,"lng":114.18625,"radius":250},
   {"name":"Discovery College","address":"38 Siena Avenue, Discovery Bay, Lantau Island, Hong Kong","lat":22.303768,"lng":114.014331,"radius":250},
   {"name":"Renaissance College Hong Kong","address":"5 Hang Ming Street, Ma On Shan, New Territories, Hong Kong","lat":22.418051,"lng":114.224815,"radius":250},
   {"name":"San Wui Commercial Society YMCA of Hong Kong Christian School","address":"5 Kwong Lee Road, Shamshuipo, Kowloon","lat":22.340435,"lng":114.159058,"radius":250},
   {"name":"SKH St. Peter's Primary School","address":"88 Hill Road Hong Kong","lat":22.284177,"lng":114.135639,"radius":250},
   {"name":"Christian and Missionary Alliance Sun Kei Primary School (Ping Shek)","address":"PING SHEK ESTATE 12 CLEAR WATER BAY ROAD KOWLOON","lat":22.333812,"lng":114.210428,"radius":250},
   {"name":"The Mission Covenant Church Holm Glad No. 2 Primary School","address":"ESTATE PRIMARY SCHOOL NO.1 SHUN ON ESTATE KWUN TONG KOWLOON","lat":22.327733,"lng":114.225685,"radius":250},
   {"name":"SKH Holy Cross Primary School","address":"Kai Tak Development Site 1A-3, Kowloon","lat":22.33613,"lng":114.205236,"radius":250},
   {"name":"RTC GAIA School","address":"DD 131 TSENG TAU SHEUNG TSUEN SAN HUI TUEN MUN NEW TERRITORIES","lat":22.396157,"lng":113.979181,"radius":250},
   {"name":"CCC Fong Yun Wah Primary School","address":"Phase II, Tin Yiu Estate, Tin Shui Wai, Yuen Long, New Territories","lat":22.453377,"lng":114.00509,"radius":250},
   {"name":"St. Hilary's Primary School","address":"6 Wan Tau Street, Tai Po","lat":22.446094,"lng":114.167161,"radius":250},
   {"name":"Forest House Waldorf School","address":"18 Tso Wo Road, Sai Kung","lat":22.391596,"lng":114.292567,"radius":250},
   {"name":"Hong Kong Adventist Academy","address":"1111 CLEAR WATER BAY ROAD SAI KUNG NEW TERRITORIES","lat":22.307435,"lng":114.285804,"radius":250},
   {"name":"KLT Funful English Primary School","address":"1 CUMBERLAND ROAD KOWLOON TONG KOWLOON","lat":22.327267,"lng":114.176341,"radius":250},
   {"name":"Island Christian Academy","address":"70 Bridges Street, Sheung Wan, Hong Kong","lat":22.283859,"lng":114.14922,"radius":250}
]}